,URL,latitude,longitude,city,state,brand
0,https://www.crunch.com/locations/gainesville,29.633599,-82.373787,Gainesville,FL,Crunch
1,https://www.crunch.com/locations/orangepark,30.188574,-81.736465,Orange Park,FL,Crunch
2,https://www.crunch.com/locations/regency-park,30.31759,-81.55373,Jacksonville,FL,Crunch
3,https://www.crunch.com/locations/harbour-village,30.32196,-81.452728,Jacksonville,FL,Crunch
4,https://www.crunch.com/locations/deltona,28.896451,-81.272008,Deltona,FL,Crunch
5,https://www.crunch.com/locations/clermont,28.545246,-81.733148,Clermont,FL,Crunch
6,https://www.crunch.com/locations/apopka,28.67105,-81.466217,Apopka,FL,Crunch
7,https://www.crunch.com/locations/daytona-beach,29.206035,-81.042921,Daytona Beach,FL,Crunch
8,https://www.crunch.com/locations/lake-mary,28.755404,-81.336112,Lake Mary,FL,Crunch
9,https://www.crunch.com/locations/altamonte-springs,28.68369,-81.41869,Altamonte Springs,FL,Crunch
10,https://www.crunch.com/locations/winter-garden,28.5495,-81.59439,Winter Garden,FL,Crunch
11,https://www.crunch.com/locations/ocoee,28.57531,-81.51875,Ocoee,FL,Crunch
12,https://www.crunch.com/locations/maitland,28.634801,-81.373917,Maitland,FL,Crunch
13,https://www.crunch.com/locations/winter-springs,28.69648,-81.26295,Winter Springs,FL,Crunch
14,https://www.crunch.com/locations/casselberry,28.645032,-81.320969,Casselberry,FL,Crunch
15,https://www.crunch.com/locations/kirkman,28.527336,-81.461925,Orlando,FL,Crunch
16,https://www.crunch.com/locations/wesley-chapel,28.23598,-82.35228,Wesley Chapel,FL,Crunch
17,https://www.crunch.com/locations/winter-park,28.613034,-81.281234,Winter Park,FL,Crunch
18,https://www.crunch.com/locations/dr-phillips,28.454646,-81.490566,Orlando,FL,Crunch
19,https://www.crunch.com/locations/east-colonial,28.552,-81.34236,Orlando,FL,Crunch
20,https://www.crunch.com/locations/trinity,28.218179,-82.691598,New Port Richey,FL,Crunch
21,https://www.crunch.com/locations/landolakes,28.186886,-82.437849,Land O' Lakes,FL,Crunch
22,https://www.crunch.com/locations/belle-isle,28.479522,-81.33204,Orlando,FL,Crunch
23,https://www.crunch.com/locations/orlando-park,28.568302,-81.199472,Orlando,FL,Crunch
24,https://www.crunch.com/locations/valdosta,30.84574,-83.31982,Valdosta,GA,Crunch
25,https://www.crunch.com/locations/carrollwood,28.0965,-82.50237,Tampa,FL,Crunch
26,https://www.crunch.com/locations/tampa-palms,28.08873,-82.40514,Tampa,FL,Crunch
27,https://www.crunch.com/locations/lake-nona,28.446101,-81.262908,Orlando,FL,Crunch
28,https://www.crunch.com/locations/kissimmee,28.33891,-81.41095,Kissimmee,FL,Crunch
29,https://www.crunch.com/locations/palm-harbor,28.091459,-82.740082,Palm Harbor,FL,Crunch
30,https://www.crunch.com/locations/hillsborough,27.9950098,-82.5176571,Tampa,FL,Crunch
31,https://www.crunch.com/locations/countryside,28.018879,-82.730247,Clearwater,FL,Crunch
32,https://www.crunch.com/locations/channelside,27.950686,-82.447781,Tampa,FL,Crunch
33,https://www.crunch.com/locations/brandon,27.93781,-82.31159,Brandon,FL,Crunch
34,https://www.crunch.com/locations/lakeland,27.971024,-81.962777,Lakeland,FL,Crunch
35,https://www.crunch.com/locations/st-cloud-fl,28.244814,-81.241318,St. Cloud,FL,Crunch
36,https://www.crunch.com/locations/south-tampa,27.905395,-82.507324,Tampa,FL,Crunch
37,https://www.crunch.com/locations/bloomingdale,27.89507,-82.24667,Valrico,FL,Crunch
38,https://www.crunch.com/locations/poinciana,28.08671,-81.47299,Kissimmee,FL,Crunch
39,https://www.crunch.com/locations/seminole,27.840785,-82.788396,Seminole,FL,Crunch
40,https://www.crunch.com/locations/stpete-northeast,27.80569,-82.635727,St Petersburg,FL,Crunch
41,https://www.crunch.com/locations/riverview,27.792006,-82.329898,Riverview,FL,Crunch
42,https://www.crunch.com/locations/apollo-beach,27.76888,-82.38703,Apollo Beach,FL,Crunch
43,https://www.crunch.com/locations/tyrone,27.78237,-82.713448,St. Petersburg,FL,Crunch
44,https://www.crunch.com/locations/tallahassee,30.463447,-84.309835,Tallahassee,FL,Crunch
45,https://www.crunch.com/locations/wickham,28.18941,-80.67219,Melbourne,FL,Crunch
46,https://www.crunch.com/locations/parrish,27.5463,-82.475227,Parrish,FL,Crunch
47,https://www.crunch.com/locations/lakewood-ranch,27.48845,-82.45513,Bradenton,FL,Crunch
48,https://www.crunch.com/locations/west-melbourne,28.078677,-80.642389,Melbourne,FL,Crunch
49,https://www.crunch.com/locations/bradenton,27.45477,-82.57678,Bradenton,FL,Crunch
50,https://www.crunch.com/locations/sarasota-university,27.39046,-82.5057,Sarasota,FL,Crunch
51,https://www.crunch.com/locations/east-sarasota,27.33863,-82.43307,Sarasota,FL,Crunch
52,https://www.crunch.com/locations/sarasota-bee-ridge,27.29857,-82.4944,Sarasota,FL,Crunch
53,https://www.crunch.com/locations/savannah,32.001945,-81.116935,Savannah,GA,Crunch
54,https://www.crunch.com/locations/port-st-lucie,27.27645,-80.28861,Port St. Lucie,FL,Crunch
55,https://www.crunch.com/locations/cape-coral,26.64526,-81.98701,Cape Coral,FL,Crunch
56,https://www.crunch.com/locations/six-mile,26.60613,-81.80868,Fort Myers,FL,Crunch
57,https://www.crunch.com/locations/boy-scout,26.58304,-81.87825,Fort Myers,FL,Crunch
58,https://www.crunch.com/locations/stuart,27.17326,-80.23361,Stuart,FL,Crunch
59,https://www.crunch.com/locations/dothan,31.233946,-85.45032,Dothan,AL,Crunch
60,https://www.crunch.com/locations/fort-myers,26.5056,-81.91014,Fort Myers,FL,Crunch
61,https://www.crunch.com/locations/warner-robins,32.61952,-83.6885,Centerville,GA,Crunch
62,https://www.crunch.com/locations/naples,26.21298,-81.72956,Naples,FL,Crunch
63,https://www.crunch.com/locations/palm-beach-gardens,26.80779,-80.10194,Palm Beach Gardens,FL,Crunch
64,https://www.crunch.com/locations/wellington,26.67269,-80.24778,Wellington,FL,Crunch
65,https://www.crunch.com/locations/greenacres,26.6495,-80.15017,Greenacres,FL,Crunch
66,https://www.crunch.com/locations/columbus,32.50626,-84.94784,Columbus,GA,Crunch
67,https://www.crunch.com/locations/lake-worth,26.57215,-80.11607,Lake Worth,FL,Crunch
68,https://www.crunch.com/locations/westashley,32.799984,-80.016107,Charleston,SC,Crunch
69,https://www.crunch.com/locations/coral-ridge,26.29784,-80.27704,Coral Springs,FL,Crunch
70,https://www.crunch.com/locations/trolleyroad,32.96377,-80.16495,Summerville,SC,Crunch
71,https://www.crunch.com/locations/coral-springs,26.24294,-80.25387,Coral Springs,FL,Crunch
72,https://www.crunch.com/locations/augusta,33.49054,-82.07961,Augusta,GA,Crunch
73,https://www.crunch.com/locations/mount-pleasant,32.840784,-79.853808,Mount Pleasant,SC,Crunch
74,https://www.crunch.com/locations/north-charleston,32.946375,-80.037266,North Charleston,SC,Crunch
75,https://www.crunch.com/locations/sunrise,26.17037,-80.28281,Sunrise,FL,Crunch
76,https://www.crunch.com/locations/tamarac,26.18811,-80.20581,Tamarac,FL,Crunch
77,https://www.crunch.com/locations/parkwest,32.87678,-79.7805,Mt Pleasant,SC,Crunch
78,https://www.crunch.com/locations/pompano-beach,26.212541,-80.107278,Pompano Beach,FL,Crunch
79,https://www.crunch.com/locations/oakland-park,26.17058,-80.14654,Oakland Park,FL,Crunch
80,https://www.crunch.com/locations/plantation,26.111597,-80.259285,Plantation,FL,Crunch
81,https://www.crunch.com/locations/auburn,32.62457,-85.444313,Auburn,AL,Crunch
82,https://www.crunch.com/locations/west-pembroke,26.00584,-80.36007,Pembroke Pines,FL,Crunch
83,https://www.crunch.com/locations/pembroke-pines,26.009672,-80.281709,Pembroke Pines,FL,Crunch
84,https://www.crunch.com/locations/miami-gardens,25.950684,-80.243408,Miami Gardens,FL,Crunch
85,https://www.crunch.com/locations/hallandale,25.93465,-80.12203,Hallandale Beach,FL,Crunch
86,https://www.crunch.com/locations/doral,25.792516,-80.386618,Miami,FL,Crunch
87,https://www.crunch.com/locations/pensacola,30.488689,-87.224998,Pensacola,FL,Crunch
88,https://www.crunch.com/locations/montgomery,32.35691,-86.21726,Montgomery,AL,Crunch
89,https://www.crunch.com/locations/south-beach,25.78421,-80.13208,Miami Beach,FL,Crunch
90,https://www.crunch.com/locations/cutler-bay,25.57562,-80.36788,Cutler Bay,FL,Crunch
91,https://www.crunch.com/locations/athens,33.94433,-83.40924,Athens,GA,Crunch
92,https://www.crunch.com/locations/stone-mountain,33.838238,-84.071341,Lilburn,GA,Crunch
93,https://www.crunch.com/locations/homestead,25.476076,-80.427462,Homestead,FL,Crunch
94,https://www.crunch.com/locations/snellville,33.904316,-84.004814,Lawrenceville,GA,Crunch
95,https://www.crunch.com/locations/tucker,33.851971,-84.206291,Tucker,GA,Crunch
96,https://www.crunch.com/locations/chamblee,33.898777,-84.30147,Chamblee,GA,Crunch
97,https://www.crunch.com/locations/perimeter,33.929157,-84.343062,Atlanta,GA,Crunch
98,https://www.crunch.com/locations/duluth,34.023624,-84.11375,Duluth,GA,Crunch
99,https://www.crunch.com/locations/johns-creek,34.02915,-84.18906,Johns Creek,GA,Crunch
100,https://www.crunch.com/locations/buford,34.084887,-83.990115,Buford,GA,Crunch
101,https://www.crunch.com/locations/marietta,33.96979,-84.48895,Marietta,GA,Crunch
102,https://www.crunch.com/locations/roswell,34.034346,-84.343846,Roswell,GA,Crunch
103,https://www.crunch.com/locations/hiram,33.88925,-84.7533,Hiram,GA,Crunch
104,https://www.crunch.com/locations/west-cobb,33.953927,-84.653105,Marietta,GA,Crunch
105,https://www.crunch.com/locations/east-cobb,34.03851,-84.46288,Marietta,GA,Crunch
106,https://www.crunch.com/locations/kennesaw,33.99926,-84.58669,Kennesaw,GA,Crunch
107,https://www.crunch.com/locations/acworth,34.03508,-84.68366,Acworth,GA,Crunch
108,https://www.crunch.com/locations/gainesville-ga,34.29562,-83.8397,Gainesville,GA,Crunch
109,https://www.crunch.com/locations/spanishfort,30.66031,-87.90603,Spanish Fort,AL,Crunch
110,https://www.crunch.com/locations/anderson-sc,34.55469,-82.68291,Anderson,SC,Crunch
111,https://www.crunch.com/locations/myrtlebeach,33.69979,-78.92471,Myrtle Beach,SC,Crunch
112,https://www.crunch.com/locations/mobile,30.67647,-88.12205,Mobile,AL,Crunch
113,https://www.crunch.com/locations/mauldin,34.775539,-82.313568,Mauldin,SC,Crunch
114,https://www.crunch.com/locations/greenville,34.80085,-82.377602,Greenville,SC,Crunch
115,https://www.crunch.com/locations/alabaster,33.23818,-86.81731,Alabaster,AL,Crunch
116,https://www.crunch.com/locations/cherrydale,34.88935,-82.40204,Greenville,SC,Crunch
117,https://www.crunch.com/locations/taylors,34.89069,-82.29492,Taylors,SC,Crunch
118,https://www.crunch.com/locations/hoover,33.387852,-86.807808,Hoover,AL,Crunch
119,https://www.crunch.com/locations/spartanburg,34.96419,-81.89533,Spartanburg,SC,Crunch
120,https://www.crunch.com/locations/ballantyne,35.064831,-80.845958,Charlotte,NC,Crunch
121,https://www.crunch.com/locations/steele-creek,35.117319,-80.961348,Charlotte,NC,Crunch
122,https://www.crunch.com/locations/arboretum,35.09547,-80.786568,Charlotte,NC,Crunch
123,https://www.crunch.com/locations/tuscaloosa,33.178259,-87.523357,Tuscaloosa,AL,Crunch
124,https://www.crunch.com/locations/matthews,35.12756,-80.70796,Matthews,NC,Crunch
125,https://www.crunch.com/locations/d-iberville,30.441564,-88.898194,D'Iberville,MS,Crunch
126,https://www.crunch.com/locations/charlotte-university,35.2953,-80.74017,Charlotte,NC,Crunch
127,https://www.crunch.com/locations/hamilton-place,35.03339,-85.15932,Chattanooga,TN,Crunch
128,https://www.crunch.com/locations/long-beach-ms,30.35065,-89.154742,Long Beach,MS,Crunch
129,https://www.crunch.com/locations/wilmington,34.235124,-77.881554,Wilmington,NC,Crunch
130,https://www.crunch.com/locations/hixson,35.12563,-85.23916,Hixson,TN,Crunch
131,https://www.crunch.com/locations/petal,31.350084,-89.226433,Petal,MS,Crunch
132,https://www.crunch.com/locations/irelanddrive,35.041562,-78.948024,Fayetteville,NC,Crunch
133,https://www.crunch.com/locations/skiboroad,35.074509,-78.965714,Fayetteville,NC,Crunch
134,https://www.crunch.com/locations/hattiesburg,31.327724,-89.357816,Hattiesburg,MS,Crunch
135,https://www.crunch.com/locations/decatur,34.56323,-87.01189,Decatur,AL,Crunch
136,https://www.crunch.com/locations/bearden,35.942395,-83.97886,Knoxville,TN,Crunch
137,https://www.crunch.com/locations/fountain-city,36.02977,-83.93073,Knoxville,TN,Crunch
138,https://www.crunch.com/locations/algiers,29.925668,-90.01971,New Orleans,LA,Crunch
139,https://www.crunch.com/locations/jacksonville,34.786769,-77.427051,Jacksonville,NC,Crunch
140,https://www.crunch.com/locations/marrero,29.873855,-90.099106,Marrero,LA,Crunch
141,https://www.crunch.com/locations/mandeville,30.37515,-90.09173,Mandeville,LA,Crunch
142,https://www.crunch.com/locations/westmarket,36.07054,-79.84989,Greensboro,NC,Crunch
143,https://www.crunch.com/locations/florenceal,34.82425,-87.65625,Florence,AL,Crunch
144,https://www.crunch.com/locations/churchcrossing,36.133903,-79.787023,Greensboro,NC,Crunch
145,https://www.crunch.com/locations/villagedistrict,35.791224,-78.658242,Raleigh,NC,Crunch
146,https://www.crunch.com/locations/creedmoor,35.871859,-78.679513,Raleigh,NC,Crunch
147,https://www.crunch.com/locations/murfreesboro,35.86264,-86.40686,Murfreesboro,TN,Crunch
148,https://www.crunch.com/locations/ridgeland,32.399491,-90.118773,Ridgeland,MS,Crunch
149,https://www.crunch.com/locations/priest-lake,36.07178,-86.638008,Nashville,TN,Crunch
150,https://www.crunch.com/locations/bell-road,36.15009,-86.62553,Nashville,TN,Crunch
151,https://www.crunch.com/locations/baton-rouge,30.43373,-91.0843,Baton Rouge,LA,Crunch
152,https://www.crunch.com/locations/hendersonville,36.33201,-86.62559,Hendersonville,TN,Crunch
153,https://www.crunch.com/locations/roanoke,37.230996,-80.005864,Roanoke,VA,Crunch
154,https://www.crunch.com/locations/clarksville,36.5734,-87.40816,Clarksville,TN,Crunch
155,https://www.crunch.com/locations/lynchburg,37.373979,-79.182933,Lynchburg,VA,Crunch
156,https://www.crunch.com/locations/cordova,35.17018,-89.79512,Cordova,TN,Crunch
157,https://www.crunch.com/locations/white-station,35.10828,-89.8901,Memphis,TN,Crunch
158,https://www.crunch.com/locations/southaven,34.991847,-90.012922,Southaven,MS,Crunch
159,https://www.crunch.com/locations/austin-peay,35.21385,-89.915737,Memphis,TN,Crunch
160,https://www.crunch.com/locations/lexington,37.991305,-84.521574,Lexington,KY,Crunch
161,https://www.crunch.com/locations/portsmouth,36.814606,-76.358523,Portsmouth,VA,Crunch
162,https://www.crunch.com/locations/midlothian,37.508885,-77.487069,Richmond,VA,Crunch
163,https://www.crunch.com/locations/norfolk,36.860543,-76.204749,Norfolk,VA,Crunch
164,https://www.crunch.com/locations/chimney-hill,36.81371,-76.10003,Virginia Beach,VA,Crunch
165,https://www.crunch.com/locations/west-end,37.62106,-77.61227,Richmond,VA,Crunch
166,https://www.crunch.com/locations/scotts-addition,37.56886,-77.47751,Richmond,VA,Crunch
167,https://www.crunch.com/locations/hampton,37.036383,-76.401457,Hampton,VA,Crunch
168,https://www.crunch.com/locations/outerloop,38.13969,-85.68182,Louisville,KY,Crunch
169,https://www.crunch.com/locations/ferncreek,38.16627,-85.6043,Louisville,KY,Crunch
170,https://www.crunch.com/locations/glenside,37.60959,-77.5159,Henrico,VA,Crunch
171,https://www.crunch.com/locations/brook-rd,37.60907,-77.4569,Richmond,VA,Crunch
172,https://www.crunch.com/locations/dixie,38.15107,-85.83448,Louisville,KY,Crunch
173,https://www.crunch.com/locations/middletown-ky,38.24429,-85.52967,Louisville,KY,Crunch
174,https://www.crunch.com/locations/evansville,37.979938,-87.49543,Evansville,IN,Crunch
175,https://www.crunch.com/locations/fredericksburg,38.296047,-77.513292,Fredericksburg,VA,Crunch
176,https://www.crunch.com/locations/florence,39.00999,-84.64232,Florence,KY,Crunch
177,https://www.crunch.com/locations/anderson,39.0727,-84.32584,Cincinnati,OH,Crunch
178,https://www.crunch.com/locations/newport,39.08143,-84.48161,Newport,KY,Crunch
179,https://www.crunch.com/locations/oakley,39.160493,-84.422166,Cincinnati,OH,Crunch
180,https://www.crunch.com/locations/kenwood,39.20414,-84.374,Cincinnati,OH,Crunch
181,https://www.crunch.com/locations/mason,39.30787,-84.31603,Mason,OH,Crunch
182,https://www.crunch.com/locations/port-arthur,29.947271,-93.988655,Port Arthur,TX,Crunch
183,https://www.crunch.com/locations/waldorf,38.62793,-76.91637,Waldorf,MD,Crunch
184,https://www.crunch.com/locations/beaumont,30.12551,-94.15636,Beaumont,TX,Crunch
185,https://www.crunch.com/locations/leesburg,39.10792,-77.52713,Leesburg,VA,Crunch
186,https://www.crunch.com/locations/chevy-chase,38.956251,-77.08461199999999,Washington,DC,Crunch
187,https://www.crunch.com/locations/reynoldsburg,39.95479,-82.81212,Columbus,OH,Crunch
188,https://www.crunch.com/locations/college-park,38.97863,-76.93144,College Park,MD,Crunch
189,https://www.crunch.com/locations/campus,40.019619,-83.025985,Columbus,OH,Crunch
190,https://www.crunch.com/locations/hilliard,40.0334,-83.15825,Hilliard,OH,Crunch
191,https://www.crunch.com/locations/greenwood,39.63129,-86.12543,Greenwood,IN,Crunch
192,https://www.crunch.com/locations/frederick,39.41777,-77.44402,Frederick,MD,Crunch
193,https://www.crunch.com/locations/avon,39.765301,-86.32196,Indianapolis,IN,Crunch
194,https://www.crunch.com/locations/keystone,39.86725,-86.12288,Indianapolis,IN,Crunch
195,https://www.crunch.com/locations/hagerstown,39.65382,-77.752953,Hagerstown,MD,Crunch
196,https://www.crunch.com/locations/michigan-road,39.91326,-86.22518,Indianapolis,IN,Crunch
197,https://www.crunch.com/locations/canton,39.275948,-76.562053,Baltimore,MD,Crunch
198,https://www.crunch.com/locations/noblesville,39.99839,-86.00279,Noblesville,IN,Crunch
199,https://www.crunch.com/locations/westminster,39.564824,-76.978618,Westminster,MD,Crunch
200,https://www.crunch.com/locations/pleasant-hills,40.33128,-79.94558,Pleasant Hills,PA,Crunch
201,https://www.crunch.com/locations/longview,32.51648,-94.73978,Longview,TX,Crunch
202,https://www.crunch.com/locations/chambersburg,39.934608,-77.691756,Chambersburg,PA,Crunch
203,https://www.crunch.com/locations/dickinson,29.449805,-95.079397,Dickinson,TX,Crunch
204,https://www.crunch.com/locations/league-city,29.469313,-95.094527,League City,TX,Crunch
205,https://www.crunch.com/locations/mcknight,40.498418,-80.012885,Pittsburgh,PA,Crunch
206,https://www.crunch.com/locations/atascocita,29.997709,-95.170837,Humble,TX,Crunch
207,https://www.crunch.com/locations/fenton,38.513895,-90.442645,Fenton,MO,Crunch
208,https://www.crunch.com/locations/humble,30.01404,-95.26086,Humble,TX,Crunch
209,https://www.crunch.com/locations/pearland,29.55472,-95.263546,Pearland,TX,Crunch
210,https://www.crunch.com/locations/manchester-mo,38.59411,-90.50663,Manchester,MO,Crunch
211,https://www.crunch.com/locations/florissant,38.79011,-90.34403,Florissant,MO,Crunch
212,https://www.crunch.com/locations/york,39.9810346,-76.7540662,York,PA,Crunch
213,https://www.crunch.com/locations/conroe,30.333599,-95.482242,Conroe,TX,Crunch
214,https://www.crunch.com/locations/east-york,39.97432,-76.67998,York,PA,Crunch
215,https://www.crunch.com/locations/tyler,32.30823,-95.27652,Tyler,TX,Crunch
216,https://www.crunch.com/locations/st-peters,38.78976,-90.62686,Saint Peters,MO,Crunch
217,https://www.crunch.com/locations/newark,39.683042,-75.736278,Newark,DE,Crunch
218,https://www.crunch.com/locations/kirkwood,29.73669,-95.59078,Houston,TX,Crunch
219,https://www.crunch.com/locations/mechanicsburg,40.24126,-76.990102,Mechanicsburg,PA,Crunch
220,https://www.crunch.com/locations/copperfield,29.87268,-95.6454,Houston,TX,Crunch
221,https://www.crunch.com/locations/cypress,29.967371,-95.688799,Cypress,TX,Crunch
222,https://www.crunch.com/locations/champaign,40.13579,-88.23969,Champaign,IL,Crunch
223,https://www.crunch.com/locations/lancaster-pa,40.070469,-76.343872,Lancaster,PA,Crunch
224,https://www.crunch.com/locations/harrisburg,40.279358,-76.824308,Harrisburg,PA,Crunch
225,https://www.crunch.com/locations/katy,29.75913,-95.75251,Katy,TX,Crunch
226,https://www.crunch.com/locations/brunswick,41.238341,-81.80331,Brunswick,OH,Crunch
227,https://www.crunch.com/locations/brandywine,39.831825,-75.538659,Wilmington,DE,Crunch
228,https://www.crunch.com/locations/state-college,40.78181,-77.85279,State College,PA,Crunch
229,https://www.crunch.com/locations/middleburg-heights,41.378742,-81.786936,Middleburg Heights,OH,Crunch
230,https://www.crunch.com/locations/fayetteville,36.128497,-94.149384,Fayetteville,AR,Crunch
231,https://www.crunch.com/locations/pottstown,40.25472,-75.66485,Pottstown,PA,Crunch
232,https://www.crunch.com/locations/norristown,40.146118,-75.39296,Norristown,PA,Crunch
233,https://www.crunch.com/locations/moorestown,39.94265,-74.959534,Moorestown,NJ,Crunch
234,https://www.crunch.com/locations/willoughby,41.626656,-81.437108,Willoughby,OH,Crunch
235,https://www.crunch.com/locations/huntingdon-valley,40.08783,-75.09256,Huntingdon Valley,PA,Crunch
236,https://www.crunch.com/locations/roosevelt,40.07526,-75.03237,Philadelphia,PA,Crunch
237,https://www.crunch.com/locations/bensalem,40.0738,-74.96662,Bensalem,PA,Crunch
238,https://www.crunch.com/locations/college-station,30.633282,-96.330838,College Station,TX,Crunch
239,https://www.crunch.com/locations/toledo,41.704182,-83.589569,Toledo,OH,Crunch
240,https://www.crunch.com/locations/normal,40.50714,-88.95534,Normal,IL,Crunch
241,https://www.crunch.com/locations/fairless-hills,40.18759,-74.86726,Fairless Hills,PA,Crunch
242,https://www.crunch.com/locations/hamilton,40.19222,-74.7201,Hamilton,NJ,Crunch
243,https://www.crunch.com/locations/toms-river,39.975094,-74.18058,Toms River,NJ,Crunch
244,https://www.crunch.com/locations/monroe,41.951138,-83.401984,Monroe,MI,Crunch
245,https://www.crunch.com/locations/east-windsor,40.25653,-74.55009,East Windsor,NJ,Crunch
246,https://www.crunch.com/locations/columbia-mo,38.95064,-92.33424,Columbia,MO,Crunch
247,https://www.crunch.com/locations/forney,32.748557,-96.451873,Forney,TX,Crunch
248,https://www.crunch.com/locations/freehold,40.2467,-74.279877,Freehold,NJ,Crunch
249,https://www.crunch.com/locations/rowlett,32.908472,-96.566628,Rowlett,TX,Crunch
250,https://www.crunch.com/locations/wall-township,40.16534,-74.049316,Wall Township,NJ,Crunch
251,https://www.crunch.com/locations/south-marlboro,40.303674,-74.251083,Marlboro,NJ,Crunch
252,https://www.crunch.com/locations/north-brunswick,40.43762,-74.50863,North Brunswick,NJ,Crunch
253,https://www.crunch.com/locations/southgate,42.19885,-83.19682,Southgate,MI,Crunch
254,https://www.crunch.com/locations/ocean-township,40.227242,-74.043358,Ocean Township,NJ,Crunch
255,https://www.crunch.com/locations/erie,42.10117,-80.10457,Erie,PA,Crunch
256,https://www.crunch.com/locations/east-brunswick,40.431,-74.38838,East Brunswick,NJ,Crunch
257,https://www.crunch.com/locations/somerset,40.51328,-74.48639,Somerset,NJ,Crunch
258,https://www.crunch.com/locations/taylor,42.255546,-83.268143,Taylor,MI,Crunch
259,https://www.crunch.com/locations/ypsilanti,42.241056,-83.613055,Ypsilanti,MI,Crunch
260,https://www.crunch.com/locations/marlboro,40.38348,-74.21349,Morganville,NJ,Crunch
261,https://www.crunch.com/locations/tinton-falls,40.312179,-74.067041,Tinton Falls,NJ,Crunch
262,https://www.crunch.com/locations/aberdeen,40.39787,-74.224371,Aberdeen,NJ,Crunch
263,https://www.crunch.com/locations/ann-arbor,42.24722,-83.76915,Ann Arbor,MI,Crunch
264,https://www.crunch.com/locations/allen,33.10393,-96.68316,Allen,TX,Crunch
265,https://www.crunch.com/locations/east-plano,33.020229,-96.71479,Plano,TX,Crunch
266,https://www.crunch.com/locations/greenbrook,40.588098,-74.507967,Green Brook,NJ,Crunch
267,https://www.crunch.com/locations/central-forest,32.90755,-96.76941,Dallas,TX,Crunch
268,https://www.crunch.com/locations/dearborn,42.330002,-83.205409,Dearborn,MI,Crunch
269,https://www.crunch.com/locations/mckinney,33.175001,-96.728331,McKinney,TX,Crunch
270,https://www.crunch.com/locations/westland,42.337598,-83.39553,Westland,MI,Crunch
271,https://www.crunch.com/locations/plano,33.024448,-96.798561,Plano,TX,Crunch
272,https://www.crunch.com/locations/duncanville,32.655251,-96.890167,Dallas,TX,Crunch
273,https://www.crunch.com/locations/wilkes-barre,41.2467,-75.84814,Wilkes Barre,PA,Crunch
274,https://www.crunch.com/locations/hackettstown,40.82743,-74.83287,Hackettstown,NJ,Crunch
275,https://www.crunch.com/locations/woodbridge,40.56654,-74.28781,Woodbridge,NJ,Crunch
276,https://www.crunch.com/locations/frisco,33.10952,-96.805832,Frisco,TX,Crunch
277,https://www.crunch.com/locations/cedar-hill,32.591862,-96.946007,Cedar Hill,TX,Crunch
278,https://www.crunch.com/locations/si-south,40.58633,-74.19388,Staten Island,NY,Crunch
279,https://www.crunch.com/locations/garwood,40.65224,-74.32307,Garwood,NJ,Crunch
280,https://www.crunch.com/locations/waco,31.529914,-97.172799,Waco,TX,Crunch
281,https://www.crunch.com/locations/burbank-station,41.752373,-87.741633,Burbank,IL,Crunch
282,https://www.crunch.com/locations/farmington-hills,42.474216,-83.433832,Farmington Hills,MI,Crunch
283,https://www.crunch.com/locations/grand-prairie,32.69665,-97.02576,Grand Prairie,TX,Crunch
284,https://www.crunch.com/locations/morristown,40.797699,-74.50119,Morristown,NJ,Crunch
285,https://www.crunch.com/locations/springfield,40.710315,-74.310955,Springfield,NJ,Crunch
286,https://www.crunch.com/locations/stanhope,40.90915,-74.71197,Stanhope,NJ,Crunch
287,https://www.crunch.com/locations/bolingbrook,41.688196,-88.065502,Bolingbrook,IL,Crunch
288,https://www.crunch.com/locations/staten-island,40.63351,-74.07586,Staten Island,NY,Crunch
289,https://www.crunch.com/locations/bensonhurst,40.593102,-73.997528,Brooklyn,NY,Crunch
290,https://www.crunch.com/locations/brokenarrow,36.01564,-95.79626,Broken Arrow,OK,Crunch
291,https://www.crunch.com/locations/livingston,40.79666,-74.35371,Livingston,NJ,Crunch
292,https://www.crunch.com/locations/arlington,32.65065,-97.137169,Arlington,TX,Crunch
293,https://www.crunch.com/locations/warren,42.580329,-82.987985,Warren,MI,Crunch
294,https://www.crunch.com/locations/scranton,41.40791,-75.66792,Scranton,PA,Crunch
295,https://www.crunch.com/locations/flatbush,40.64574,-73.95825,Brooklyn,NY,Crunch
296,https://www.crunch.com/locations/aurora,41.71091,-88.25345,Aurora,IL,Crunch
297,https://www.crunch.com/locations/south-slope,40.6655929,-73.98891559999998,Brooklyn,NY,Crunch
298,https://www.crunch.com/locations/clinton-township,42.604977,-82.954797,Clinton Township,MI,Crunch
299,https://www.crunch.com/locations/parsippany,40.85829,-74.34791,Parsippany,NJ,Crunch
300,https://www.crunch.com/locations/park-slope,40.6769,-73.97244,Brooklyn,NY,Crunch
301,https://www.crunch.com/locations/crown-heights,40.66324,-73.93297,Brooklyn,NY,Crunch
302,https://www.crunch.com/locations/tulsa,36.03352,-95.8883,Tulsa,OK,Crunch
303,https://www.crunch.com/locations/ft-greene,40.68771,-73.97793,Brooklyn,NY,Crunch
304,https://www.crunch.com/locations/fidi,40.7086108,-74.010121321,New York,NY,Crunch
305,https://www.crunch.com/locations/temple,31.08549,-97.39782,Temple,TX,Crunch
306,https://www.crunch.com/locations/colleyville,32.87817,-97.15728,Colleyville,TX,Crunch
307,https://www.crunch.com/locations/tribeca,40.71719,-74.00511,New York,NY,Crunch
308,https://www.crunch.com/locations/verona,40.83454,-74.2268,Verona,NJ,Crunch
309,https://www.crunch.com/locations/hoboken,40.73739,-74.02765,Hoboken,NJ,Crunch
310,https://www.crunch.com/locations/bowery,40.72741,-73.9918,New York,NY,Crunch
311,https://www.crunch.com/locations/union-square,40.7328,-73.98983,New York,NY,Crunch
312,https://www.crunch.com/locations/chelsea,40.742,-73.99835,New York,NY,Crunch
313,https://www.crunch.com/locations/greenpoint,40.72841,-73.9539,Brooklyn,NY,Crunch
314,https://www.crunch.com/locations/e-34th-st,40.74494,-73.977,New York,NY,Crunch
315,https://www.crunch.com/locations/w-38th-st,40.75329,-73.98826,New York,NY,Crunch
316,https://www.crunch.com/locations/midtown-east,40.7551,-73.9732,New York,NY,Crunch
317,https://www.crunch.com/locations/w-54th-st,40.76446,-73.98349,New York,NY,Crunch
318,https://www.crunch.com/locations/tulsa-midtown,36.133433,-95.919706,Tulsa,OK,Crunch
319,https://www.crunch.com/locations/e-59th-st,40.76037,-73.96474,New York,NY,Crunch
320,https://www.crunch.com/locations/e-66th-st,40.76612,-73.96502,New York,NY,Crunch
321,https://www.crunch.com/locations/richmond-hill,40.69871,-73.834,Queens,NY,Crunch
322,https://www.crunch.com/locations/north-richland-hills,32.84177,-97.24125,North Richland Hills,TX,Crunch
323,https://www.crunch.com/locations/clifton,40.87152,-74.15497,Clifton,NJ,Crunch
324,https://www.crunch.com/locations/rochdale,40.6798,-73.77473,Jamaica,NY,Crunch
325,https://www.crunch.com/locations/w-83rd-st,40.78535,-73.97575,New York,NY,Crunch
326,https://www.crunch.com/locations/north-bergen,40.80427,-74.01208,North Bergen,NJ,Crunch
327,https://www.crunch.com/locations/e-81st-st,40.77601,-73.95642,New York,NY,Crunch
328,https://www.crunch.com/locations/waterford,42.69349,-83.3881,Waterford,MI,Crunch
329,https://www.crunch.com/locations/burleson,32.524023,-97.352112,Burleson,TX,Crunch
330,https://www.crunch.com/locations/golden-triangle,32.956904,-97.264802,Fort Worth,TX,Crunch
331,https://www.crunch.com/locations/saginaw,32.867418,-97.3406,Fort Worth,TX,Crunch
332,https://www.crunch.com/locations/inwood,40.864021,-73.917311,New York,NY,Crunch
333,https://www.crunch.com/locations/summer-creek,32.62952,-97.408652,Fort Worth,TX,Crunch
334,https://www.crunch.com/locations/midland-park,40.984447,-74.139272,Midland Park,NJ,Crunch
335,https://www.crunch.com/locations/bellmore,40.6685,-73.53101,Bellmore,NY,Crunch
336,https://www.crunch.com/locations/paramus,40.9619,-74.07132,Paramus,NJ,Crunch
337,https://www.crunch.com/locations/east-lansing,42.72403,-84.450633,East Lansing,MI,Crunch
338,https://www.crunch.com/locations/norwood,40.87281,-73.87463,Bronx,NY,Crunch
339,https://www.crunch.com/locations/east-meadow,40.72517,-73.5427,East Meadow,NY,Crunch
340,https://www.crunch.com/locations/mount-prospect,42.07848,-87.933,Mount Prospect,IL,Crunch
341,https://www.crunch.com/locations/west-lansing,42.738958,-84.630848,Lansing,MI,Crunch
342,https://www.crunch.com/locations/harker-heights,31.073126,-97.656689,Harker Heights,TX,Crunch
343,https://www.crunch.com/locations/benbrook,32.682351,-97.463376,Benbrook,TX,Crunch
344,https://www.crunch.com/locations/amityville,40.671481,-73.418509,Amityville,NY,Crunch
345,https://www.crunch.com/locations/round-rock,30.482585,-97.67675,Round Rock,TX,Crunch
346,https://www.crunch.com/locations/schaumburg,42.0516,-88.06433,Schaumburg,IL,Crunch
347,https://www.crunch.com/locations/north-round-rock,30.55647,-97.688,Round Rock,TX,Crunch
348,https://www.crunch.com/locations/corpus-christi,27.72639,-97.37891,Corpus Christi,TX,Crunch
349,https://www.crunch.com/locations/palatine,42.087704,-88.059698,Palatine,IL,Crunch
350,https://www.crunch.com/locations/corpuschristisouth,27.68032,-97.38852,Corpus Christi,TX,Crunch
351,https://www.crunch.com/locations/west-babylon,40.70248,-73.34205,West Babylon,NY,Crunch
352,https://www.crunch.com/locations/killeen,31.11201,-97.749309,Killeen,TX,Crunch
353,https://www.crunch.com/locations/south-park-meadows,30.15777,-97.79395,Austin,TX,Crunch
354,https://www.crunch.com/locations/cedar-park,30.52643,-97.81416,Cedar Park,TX,Crunch
355,https://www.crunch.com/locations/south-austin,30.22306,-97.84347,Austin,TX,Crunch
356,https://www.crunch.com/locations/new-city,41.15439,-73.9873,New City,NY,Crunch
357,https://www.crunch.com/locations/kyle,30.0299,-97.84814,Kyle,TX,Crunch
358,https://www.crunch.com/locations/hamburg,42.752305,-78.858723,Hamburg,NY,Crunch
359,https://www.crunch.com/locations/hauppauge,40.81636,-73.19357,Hauppauge,NY,Crunch
360,https://www.crunch.com/locations/middletown,41.451007,-74.382012,Middletown,NY,Crunch
361,https://www.crunch.com/locations/atx-lakeway,30.338241,-97.971641,Lakeway,TX,Crunch
362,https://www.crunch.com/locations/sanmarcostx,29.84864,-97.96589,San Marcos,TX,Crunch
363,https://www.crunch.com/locations/lake-grove,40.861644,-73.124116,Lake Grove,NY,Crunch
364,https://www.crunch.com/locations/kentwood,42.9139,-85.54681,Grand Rapids,MI,Crunch
365,https://www.crunch.com/locations/round-lake,42.379372,-88.061089,Round Lake Beach,IL,Crunch
366,https://www.crunch.com/locations/norwalk,41.09362,-73.4524,Norwalk,CT,Crunch
367,https://www.crunch.com/locations/cheektowaga,42.916214,-78.737339,Cheektowaga,NY,Crunch
368,https://www.crunch.com/locations/ithaca,42.42932,-76.51309,Ithaca,NY,Crunch
369,https://www.crunch.com/locations/walker,43.01975,-85.68723,Walker,MI,Crunch
370,https://www.crunch.com/locations/amherst,42.98011,-78.80933,Amherst,NY,Crunch
371,https://www.crunch.com/locations/tonawanda,42.999685,-78.858966,Tonawanda,NY,Crunch
372,https://www.crunch.com/locations/rockford,42.26713,-88.993813,Rockford,IL,Crunch
373,https://www.crunch.com/locations/niagara-falls,43.102922,-78.97741,Niagara Falls,NY,Crunch
374,https://www.crunch.com/locations/olathe,38.88507,-94.77777,Olathe,KS,Crunch
375,https://www.crunch.com/locations/north-brownsville,25.924894,-97.470316,Brownsville,TX,Crunch
376,https://www.crunch.com/locations/brownsville,25.922579,-97.474757,Brownsville,TX,Crunch
377,https://www.crunch.com/locations/poughkeepsie,41.64372,-73.92484,Poughkeepsie,NY,Crunch
378,https://www.crunch.com/locations/kc-mo,39.182607,-94.578445,Kansas City,MO,Crunch
379,https://www.crunch.com/locations/shawnee,39.01012,-94.77914,Shawnee,KS,Crunch
380,https://www.crunch.com/locations/sawoodlake,29.4834,-98.34829,San Antonio,TX,Crunch
381,https://www.crunch.com/locations/norman,35.21724,-97.47604,Norman,OK,Crunch
382,https://www.crunch.com/locations/okc-midwest,35.450332,-97.390265,Midwest City,OK,Crunch
383,https://www.crunch.com/locations/sa-windcrest,29.505127,-98.396721,Windcrest,TX,Crunch
384,https://www.crunch.com/locations/sa-thousand-oaks,29.551943,-98.409294,San Antonio,TX,Crunch
385,https://www.crunch.com/locations/sanpedro,29.51292,-98.49756,San Antonio,TX,Crunch
386,https://www.crunch.com/locations/greenfield,42.9313,-87.95171,Greenfield,WI,Crunch
387,https://www.crunch.com/locations/sa-colonnade,29.53481,-98.56089,San Antonio,TX,Crunch
388,https://www.crunch.com/locations/edmond,35.66794,-97.51004,Edmond,OK,Crunch
389,https://www.crunch.com/locations/hales-corners,42.94794,-88.0494,Hales Corners,WI,Crunch
390,https://www.crunch.com/locations/quail-springs,35.59716,-97.56585,Oklahoma City,OK,Crunch
391,https://www.crunch.com/locations/owasso,38.281153,-95.844721,Owasso,OK,Crunch
392,https://www.crunch.com/locations/lawrence,38.9436,-95.25934,Lawrence,KS,Crunch
393,https://www.crunch.com/locations/bandera,29.52125,-98.6383,San Antonio,TX,Crunch
394,https://www.crunch.com/locations/sa-westlakes,29.421814,-98.651827,San Antonio,TX,Crunch
395,https://www.crunch.com/locations/marbach,29.4179,-98.65742,San Antonio,TX,Crunch
396,https://www.crunch.com/locations/okc-northwest,35.569092,-97.664108,Oklahoma City,OK,Crunch
397,https://www.crunch.com/locations/waukesha,42.98929,-88.22522,Waukesha,WI,Crunch
398,https://www.crunch.com/locations/yukon,35.465,-97.723129,Yukon,OK,Crunch
399,https://www.crunch.com/locations/brookfield,43.08748,-88.06823,Brookfield,WI,Crunch
400,https://www.crunch.com/locations/fairmount,43.049795,-76.231641,Syracuse,NY,Crunch
401,https://www.crunch.com/locations/dewitt,43.049598,-76.124815,Syracuse,NY,Crunch
402,https://www.crunch.com/locations/edinburg,26.29461,-98.196085,Edinburg,TX,Crunch
403,https://www.crunch.com/locations/wichita-falls,33.88374,-98.52656,Wichita Falls,TX,Crunch
404,https://www.crunch.com/locations/pharr,26.202578,-98.20165,Pharr,TX,Crunch
405,https://www.crunch.com/locations/topeka,39.00017,-95.6876,Topeka,KS,Crunch
406,https://www.crunch.com/locations/cicero,43.14806,-76.116119,Cicero,NY,Crunch
407,https://www.crunch.com/locations/madison,43.05992,-89.51022,Madison,WI,Crunch
408,https://www.crunch.com/locations/crossgates,42.688069,-73.849441,Albany,NY,Crunch
409,https://www.crunch.com/locations/springfield-ma,42.08003,-72.52723,East Longmeadow,MA,Crunch
410,https://www.crunch.com/locations/schenectady,42.785155,-73.94455,Schenectady,NY,Crunch
411,https://www.crunch.com/locations/des-moines-south,41.52667,-93.60079,Des Moines,IA,Crunch
412,https://www.crunch.com/locations/fall-river,41.671733,-71.161143,Fall River,MA,Crunch
413,https://www.crunch.com/locations/urbandale,41.616546,-93.744526,Urbandale,IA,Crunch
414,https://www.crunch.com/locations/swansea,41.75556,-71.21853,Swansea,MA,Crunch
415,https://www.crunch.com/locations/abilene,32.428492,-99.783303,Abilene,TX,Crunch
416,https://www.crunch.com/locations/laredo,27.54072,-99.50132,Laredo,TX,Crunch
417,https://www.crunch.com/locations/newbedford,41.611014,-70.91671,New Bedford,MA,Crunch
418,https://www.crunch.com/locations/northattleboro,41.937712,-71.345451,North Attleborough,MA,Crunch
419,https://www.crunch.com/locations/worcestereast,42.24738,-71.76093,Worcester,MA,Crunch
420,https://www.crunch.com/locations/worcester,42.287952,-71.802717,Worcester,MA,Crunch
421,https://www.crunch.com/locations/appleton,44.23972,-88.3607,Appleton,WI,Crunch
422,https://www.crunch.com/locations/hudson,42.380302,-71.568996,Hudson,MA,Crunch
423,https://www.crunch.com/locations/brockton,42.07459,-71.0437,Brockton,MA,Crunch
424,https://www.crunch.com/locations/fitchburg,42.580081,-71.793183,Fitchburg,MA,Crunch
425,https://www.crunch.com/locations/braintree,42.19124,-70.98731,Braintree,MA,Crunch
426,https://www.crunch.com/locations/green-bay,44.52304,-88.0625,Green Bay,WI,Crunch
427,https://www.crunch.com/locations/roslindale,42.2757,-71.11441,Roslindale,MA,Crunch
428,https://www.crunch.com/locations/dorchester,42.28304,-71.05504,Boston,MA,Crunch
429,https://www.crunch.com/locations/allston,42.34852,-71.13265,Allston,MA,Crunch
430,https://www.crunch.com/locations/san-angelo,31.43834,-100.49161,San Angelo,TX,Crunch
431,https://www.crunch.com/locations/malden,42.42524,-71.042168,Malden,MA,Crunch
432,https://www.crunch.com/locations/nashua,42.801407,-71.542854,Nashua,NH,Crunch
433,https://www.crunch.com/locations/lynn,42.46207,-70.95068,Lynn,MA,Crunch
434,https://www.crunch.com/locations/danvers,42.584759,-70.964691,Danvers,MA,Crunch
435,https://www.crunch.com/locations/haverhill,42.7706,-71.07507,Haverhill,MA,Crunch
436,https://www.crunch.com/locations/omaha-deerfield,41.20501,-96.12601,Omaha,NE,Crunch
437,https://www.crunch.com/locations/maplewood,41.28343,-96.05426,Omaha,NE,Crunch
438,https://www.crunch.com/locations/lincoln,40.86266,-96.67836,Lincoln,NE,Crunch
439,https://www.crunch.com/locations/burlington,44.44276,-73.20987,South Burlington,VT,Crunch
440,https://www.crunch.com/locations/lubbock,33.537483,-101.92097,Lubbock,TX,Crunch
441,https://www.crunch.com/locations/midland,32.011552,-102.157635,Midland,TX,Crunch
442,https://www.crunch.com/locations/odessa,31.88792,-102.35359,Odessa,TX,Crunch
443,https://www.crunch.com/locations/amarillo,35.191988,-101.867283,Amarillo,TX,Crunch
444,https://www.crunch.com/locations/blaine,45.196049,-93.231567,Blaine,MN,Crunch
445,https://www.crunch.com/locations/maple-grove,45.136231,-93.477508,Maple Grove,MN,Crunch
446,https://www.crunch.com/locations/sioux-falls,43.50891,-96.77283,Sioux Falls,SD,Crunch
447,https://www.crunch.com/locations/st-cloud,45.55508,-94.20967,St Cloud,MN,Crunch
448,https://www.crunch.com/locations/ponce,17.989034,-66.609882,Ponce,PR,Crunch
449,https://www.crunch.com/locations/carolina,18.38942,-65.99498,Carolina,PR,Crunch
450,https://www.crunch.com/locations/caguas,18.247341,-66.028623,Caguas,PR,Crunch
451,https://www.crunch.com/locations/zapote,9.942993,-84.150274,Curridabat,San José,Crunch
452,https://www.crunch.com/locations/curridabat,9.36895,-83.7057,Curridabat,San José,Crunch
453,https://www.crunch.com/locations/colorado-springs,38.806343,-104.755259,Colorado Springs,CO,Crunch
454,https://www.crunch.com/locations/fargo,46.8632,-96.86382,Fargo,ND,Crunch
455,https://www.crunch.com/locations/el-paso-zaragoza,31.76455,-106.25803,El Paso,TX,Crunch
456,https://www.crunch.com/locations/north-colorado-springs,38.912185,-104.789647,Colorado Springs,CO,Crunch
457,https://www.crunch.com/locations/el-paso-dyer,31.87266,-106.42738,El Paso,TX,Crunch
458,https://www.crunch.com/locations/las-cruces,32.30099,-106.772469,Las Cruces,NM,Crunch
459,https://www.crunch.com/locations/abq-san-mateo,35.106543,-106.588664,Albuquerque,NM,Crunch
460,https://www.crunch.com/locations/abq-atrisco,35.084341,-106.685568,Albuquerque,NM,Crunch
461,https://www.crunch.com/locations/boulder,40.01963,-105.25365,Boulder,CO,Crunch
462,https://www.crunch.com/locations/fort-collins,40.557381,-105.078461,Fort Collins,CO,Crunch
463,https://www.crunch.com/locations/flagstaff,35.195026,-111.633553,Flagstaff,AZ,Crunch
464,https://www.crunch.com/locations/arcadia,33.474679,-111.983792,Arcadia,AZ,Crunch
465,https://www.crunch.com/locations/yuma,32.672909,-114.626404,Yuma,AZ,Crunch
466,https://www.crunch.com/locations/east-henderson,36.038629,-114.996334,Henderson,NV,Crunch
467,https://www.crunch.com/locations/greenvalley,36.036072,-115.098694,Henderson,NV,Crunch
468,https://www.crunch.com/locations/rainbow,36.173026,-115.245725,Las Vegas,NV,Crunch
469,https://www.crunch.com/locations/el-cajon-jamacha,32.78954,-116.93109,El Cajon,CA,Crunch
470,https://www.crunch.com/locations/eastlake,32.654401,-116.95522,Chula Vista,CA,Crunch
471,https://www.crunch.com/locations/university-square,32.751566,-117.067372,San Diego,CA,Crunch
472,https://www.crunch.com/locations/serra-mesa,32.80242,-117.13942,Serra Mesa,CA,Crunch
473,https://www.crunch.com/locations/carmel-valley,32.92837,-117.19872,San Diego,CA,Crunch
474,https://www.crunch.com/locations/moreno-valley,33.93789,-117.27131,Moreno Valley,CA,Crunch
475,https://www.crunch.com/locations/vista,33.19757,-117.2459,Vista,CA,Crunch
476,https://www.crunch.com/locations/hesperia,34.42138,-117.293159,Hesperia,CA,Crunch
477,https://www.crunch.com/locations/victorville,34.478049,-117.343016,Victorville,CA,Crunch
478,https://www.crunch.com/locations/oceanside,33.1903661,-117.361504,Oceanside,CA,Crunch
479,https://www.crunch.com/locations/north-riverside,33.97718,-117.45744,Riverside,CA,Crunch
480,https://www.crunch.com/locations/corona,33.869061,-117.594573,Corona,CA,Crunch
481,https://www.crunch.com/locations/san-clemente,33.45826,-117.65205,San Clemente,CA,Crunch
482,https://www.crunch.com/locations/san-dimas,34.10729,-117.82058,San Dimas,CA,Crunch
483,https://www.crunch.com/locations/tustin,33.74567,-117.81845,Tustin,CA,Crunch
484,https://www.crunch.com/locations/boise-state-street,43.654098,-116.256793,Boise,ID,Crunch
485,https://www.crunch.com/locations/boise-black-eagle,43.591468,-116.295235,Boise,ID,Crunch
486,https://www.crunch.com/locations/placentia,33.89575,-117.87087,Placentia,CA,Crunch
487,https://www.crunch.com/locations/orange,33.779942,-117.894774,Orange,CA,Crunch
488,https://www.crunch.com/locations/eagle,43.691114,-116.34297,Eagle,ID,Crunch
489,https://www.crunch.com/locations/meridian,43.619858,-116.37682,Meridian,ID,Crunch
490,https://www.crunch.com/locations/anaheim,33.83772,-117.94142,Anaheim,CA,Crunch
491,https://www.crunch.com/locations/garden-grove,33.80234,-117.961591,Garden Grove,CA,Crunch
492,https://www.crunch.com/locations/fountain-valley,33.69981,-117.97255,Fountain Valley,CA,Crunch
493,https://www.crunch.com/locations/monrovia,34.1381,-118.01281,Monrovia,CA,Crunch
494,https://www.crunch.com/locations/la-mirada,33.9153934,-118.03005189999999,La Mirada,CA,Crunch
495,https://www.crunch.com/locations/huntington-beach,33.72993,-118.02514,Huntington Beach,CA,Crunch
496,https://www.crunch.com/locations/nampa,43.598094,-116.506343,Nampa,ID,Crunch
497,https://www.crunch.com/locations/palmdale,34.579086,-118.088839,Palmdale,CA,Crunch
498,https://www.crunch.com/locations/cerritos,33.84678,-118.08039,Cerritos,CA,Crunch
499,https://www.crunch.com/locations/norwalkca,33.88767,-118.08688,Norwalk,CA,Crunch
500,https://www.crunch.com/locations/lakewood,33.86063,-118.12513,Lakewood,CA,Crunch
501,https://www.crunch.com/locations/lancaster,34.671635,-118.148425,Lancaster,CA,Crunch
502,https://www.crunch.com/locations/caldwell,43.661721,-116.640669,Caldwell,ID,Crunch
503,https://www.crunch.com/locations/long-beach,33.836304,-118.188496,Long Beach,CA,Crunch
504,https://www.crunch.com/locations/burbank,34.17344,-118.29879,Burbank,CA,Crunch
505,https://www.crunch.com/locations/west-hollywood,34.09801,-118.36445,Los Angeles,CA,Crunch
506,https://www.crunch.com/locations/van-nuys,34.1927744,-118.4491835,Van Nuys,CA,Crunch
507,https://www.crunch.com/locations/santa-clarita,34.41592,-118.46016,Santa Clarita,CA,Crunch
508,https://www.crunch.com/locations/northridge,34.25532,-118.53612,Northridge,CA,Crunch
509,https://www.crunch.com/locations/chatsworth,34.23498,-118.58927,Chatsworth,CA,Crunch
510,https://www.crunch.com/locations/west-hills,34.202133,-118.611447,Canoga Park,CA,Crunch
511,https://www.crunch.com/locations/simi-valley,34.28405,-118.76277,Simi Valley,CA,Crunch
512,https://www.crunch.com/locations/bakersfield,35.427763,-119.022674,Bakersfield,CA,Crunch
513,https://www.crunch.com/locations/shaw,36.808405,-119.711216,Clovis,CA,Crunch
514,https://www.crunch.com/locations/north-fresno,36.84419,-119.790271,Fresno,CA,Crunch
515,https://www.crunch.com/locations/sparks,39.52955,-119.7196,Sparks,NV,Crunch
516,https://www.crunch.com/locations/reno,39.476662,-119.78321,Reno,NV,Crunch
517,https://www.crunch.com/locations/santa-maria,34.952,-120.4341,Santa Maria,CA,Crunch
518,https://www.crunch.com/locations/merced,37.320132,-120.480239,Merced,CA,Crunch
519,https://www.crunch.com/locations/ceres,37.609838,-120.968842,Ceres,CA,Crunch
520,https://www.crunch.com/locations/folsom,38.67232,-121.15376,Folsom,CA,Crunch
521,https://www.crunch.com/locations/granite-bay,38.74258,-121.2236,Granite Bay,CA,Crunch
522,https://www.crunch.com/locations/stockton,38.00341,-121.29312,Stockton,CA,Crunch
523,https://www.crunch.com/locations/rocklin,38.79816,-121.29255,Rocklin,CA,Crunch
524,https://www.crunch.com/locations/elk-grove,38.40735,-121.3853,Elk Grove,CA,Crunch
525,https://www.crunch.com/locations/tracy,37.7408,-121.45216,Tracy,CA,Crunch
526,https://www.crunch.com/locations/marketsquare,38.5987,-121.42491,Sacramento,CA,Crunch
527,https://www.crunch.com/locations/gilroy,37.000353,-121.560848,Gilroy,CA,Crunch
528,https://www.crunch.com/locations/watsonville,36.938683,-121.776216,Watsonville,CA,Crunch
529,https://www.crunch.com/locations/san-jose,37.37106,-121.84661,San Jose,CA,Crunch
530,https://www.crunch.com/locations/winchester,37.30055,-121.95123,San Jose,CA,Crunch
531,https://www.crunch.com/locations/walnut-creek,37.9264467,-122.0173392,Walnut Creek,CA,Crunch
532,https://www.crunch.com/locations/sunnyvale,37.339295,-122.042637,Sunnyvale,CA,Crunch
533,https://www.crunch.com/locations/fairfield,38.259864,-122.068777,Fairfield,CA,Crunch
534,https://www.crunch.com/locations/san-lorenzo,37.68617,-122.11962,San Lorenzo,CA,Crunch
535,https://www.crunch.com/locations/alameda,37.75762,-122.2509,Alameda,CA,Crunch
536,https://www.crunch.com/locations/san-mateo,37.5454,-122.29023,San Mateo,CA,Crunch
537,https://www.crunch.com/locations/yerba-buena,37.78318,-122.39908,San Francisco,CA,Crunch
538,https://www.crunch.com/locations/polk-st,37.79827,-122.42213,San Francisco,CA,Crunch
539,https://www.crunch.com/locations/union-street,37.797857,-122.432632,San Francisco,CA,Crunch
540,https://www.crunch.com/locations/chestnut,37.800406,-122.4443,San Francisco,CA,Crunch
541,https://www.crunch.com/locations/daly-city,37.67224,-122.472244,Daly City,CA,Crunch
542,https://www.crunch.com/locations/san-rafael,37.959372,-122.508574,San Rafael,CA,Crunch
543,https://www.crunch.com/locations/redding,40.59652,-122.366453,Redding,CA,Crunch
544,https://www.crunch.com/locations/santa-rosa,38.45552,-122.732031,Santa Rosa,CA,Crunch
545,https://www.crunch.com/locations/medford,42.33872,-122.87181,Medford,OR,Crunch
546,https://www.crunch.com/locations/division,45.5041,-122.53863,Portland,OR,Crunch
547,https://www.crunch.com/locations/eugene,44.0739,-123.04529,Eugene-Springfield,OR,Crunch
548,https://www.crunch.com/locations/vancouver-plaza,45.648807,-122.595595,Vancouver,WA,Crunch
549,https://www.crunch.com/locations/beaverton,45.4565,-122.78626,Beaverton,OR,Crunch
550,https://www.crunch.com/locations/aloha,45.48188,-122.86017,Aloha,OR,Crunch
551,https://www.crunch.com/locations/lakewood-wa,47.16547569999999,-122.51902519999999,Lakewood,WA,Crunch
552,https://www.crunch.com/locations/tacoma,47.25704,-122.50898,Tacoma,WA,Crunch
553,https://www.crunch.com/locations/silverdale,47.65706,-122.67832,Silverdale,WA,Crunch
